{
  "hospitals": [
    {
      "id": 1,
      "state": "서울",
      "city": "강남구",
      "name": "아크리스동물의료센터",
      "phone": "02-583-7582",
      "address": "서울 강남구 봉은사로104길 10 동화빌딩 3층",
      "note": "",
      "zipCode": "06170",
      "latitude": 37.513723,
      "longitude": 127.0619156
    },
    {
      "id": 2,
      "state": "서울",
      "city": "강남구",
      "name": "고려종합동물병원",
      "phone": "02-575-7999",
      "address": "서울 강남구 선릉로 225 렉슬상가 507-2호",
      "note": "",
      "zipCode": "06276",
      "latitude": 37.4953009,
      "longitude": 127.0527051
    },
    {
      "id": 4,
      "state": "서울",
      "city": "강남구",
      "name": "개포릴빗동물병원",
      "phone": "02-573-7582",
      "address": "서울 강남구 논현로 70 동성빌딩 1층",
      "note": "",
      "zipCode": "06307",
      "latitude": 37.4764453,
      "longitude": 127.046323
    },
    {
      "id": 5,
      "state": "서울",
      "city": "강남구",
      "name": "최영민동물의료센터",
      "phone": "02-546-9539",
      "address": "서울 강남구 논현로132길 24 양현빌딩 2층 최영민동물의료센터",
      "note": "",
      "zipCode": "06052",
      "latitude": 37.515172,
      "longitude": 127.0323808
    },
    {
      "id": 6,
      "state": "서울",
      "city": "강남구",
      "name": "삼성종합동물병원",
      "phone": "02-459-2824",
      "address": "서울특별시 강남구 일원로45 대훈빌딩 1층",
      "note": "",
      "zipCode": "06343",
      "latitude": 37.489915,
      "longitude": 127.0815269
    },
    {
      "id": 8,
      "state": "서울",
      "city": "강서구",
      "name": "시온동물병원",
      "phone": "02-2690-9290",
      "address": "서울 강서구 까치산로 74 강서구약사회관",
      "note": "",
      "zipCode": "07677",
      "latitude": 37.5452372,
      "longitude": 126.8473287
    },
    {
      "id": 9,
      "state": "서울",
      "city": "강서구",
      "name": "나음동물의료센터",
      "phone": "02-2690-9990",
      "address": "서울 강서구 강서로 206 1층 101호",
      "note": "예약제",
      "zipCode": "07698",
      "latitude": 37.5444824,
      "longitude": 126.8380461
    },
    {
      "id": 10,
      "state": "서울",
      "city": "강서구",
      "name": "굿모닝동물병원",
      "phone": "02-2665-8256",
      "address": "서울 강서구 방화대로47가길 7 샤르망1차 103호",
      "note": "",
      "zipCode": "07511",
      "latitude": 37.5765146,
      "longitude": 126.8130406
    },
    {
      "id": 11,
      "state": "서울",
      "city": "구로구",
      "name": "클로버동물병원",
      "phone": "02-2687-7582",
      "address": "서울 구로구 서해안로 2096",
      "note": "",
      "zipCode": "08368",
      "latitude": 37.4797634,
      "longitude": 126.8228911
    },
    {
      "id": 12,
      "state": "서울",
      "city": "구로구",
      "name": "오류동물병원",
      "phone": "02-2612-3232",
      "address": "서울 구로구 경인로 236 예성라온팰리스 103동 1층",
      "note": "",
      "zipCode": "08270",
      "latitude": 37.4970799,
      "longitude": 126.8469411
    },
    {
      "id": 13,
      "state": "서울",
      "city": "구로구",
      "name": "금강종합동물병원",
      "phone": "02-2686-8008",
      "address": "서울 구로구 경인로 196",
      "note": "",
      "zipCode": "08271",
      "latitude": 37.4953698,
      "longitude": 126.8429545
    },
    {
      "id": 14,
      "state": "서울",
      "city": "관악구",
      "name": "서울대학교 관악캠퍼스 수의대부속동물병원",
      "phone": "02-880-8661",
      "address": "서울 관악구 관악로 1 서울대학교 80동",
      "note": "응급실",
      "zipCode": "08826",
      "latitude": 37.464007,
      "longitude": 126.9522394
    },
    {
      "id": 15,
      "state": "서울",
      "city": "관악구",
      "name": "한성동물병원",
      "phone": "02-872-7609",
      "address": "서울 관악구 신림로 265 1층",
      "note": "",
      "zipCode": "08844",
      "latitude": 37.4782725,
      "longitude": 126.9318534
    },
    {
      "id": 16,
      "state": "서울",
      "city": "관악구",
      "name": "서진동물병원",
      "phone": "02-887-2165",
      "address": "서울 관악구 봉천로 236",
      "note": "",
      "zipCode": "08707",
      "latitude": 37.4891767,
      "longitude": 126.9275571
    },
    {
      "id": 17,
      "state": "서울",
      "city": "노원구",
      "name": "N동물의료센터 노원점",
      "phone": "02-919-0075",
      "address": "서울 노원구 노원로 408 N동물의료센터 노원점",
      "note": "예약제",
      "zipCode": "01704",
      "latitude": 37.6531288,
      "longitude": 127.0681305
    },
    {
      "id": 18,
      "state": "서울",
      "city": "노원구",
      "name": "닥터스동물종합병원",
      "phone": "02-905-7588",
      "address": "서울 노원구 월계로 336 상천빌딩 1층 닥터스종합동물병원",
      "note": "",
      "zipCode": "01885",
      "latitude": 37.6291761,
      "longitude": 127.0578385
    },
    {
      "id": 19,
      "state": "서울",
      "city": "마포구",
      "name": "서울메디컬센터W",
      "phone": "02-323-8275",
      "address": "서울 마포구 월드컵로 46",
      "note": "",
      "zipCode": "04029",
      "latitude": 37.5534619,
      "longitude": 126.9123054
    },
    {
      "id": 20,
      "state": "서울",
      "city": "마포구",
      "name": "아이엠동물병원",
      "phone": "02-338-2475",
      "address": "서울 마포구 양화로 72 효성해링턴타워 1층 121~122호",
      "note": "",
      "zipCode": "04044",
      "latitude": 37.5508021,
      "longitude": 126.9167159
    },
    {
      "id": 23,
      "state": "서울",
      "city": "서초구",
      "name": "서울종합동물병원방배",
      "phone": "0507-1443-2251",
      "address": "서울 서초구 방배로19길 19 1층",
      "note": "",
      "zipCode": "06682",
      "latitude": 37.4849435,
      "longitude": 126.9940853
    },
    {
      "id": 25,
      "state": "서울",
      "city": "서대문구",
      "name": "어울림동물병원",
      "phone": "02-305-4242",
      "address": "서울 서대문구 가재울미래로 2 DMC 파크뷰자이 104동 1층 102A호",
      "note": "",
      "zipCode": "03711",
      "latitude": 37.5728378,
      "longitude": 126.9176129
    },
    {
      "id": 26,
      "state": "서울",
      "city": "서대문구",
      "name": "한솔동물병원",
      "phone": "02-737-8376",
      "address": "서울 서대문구 통일로 397 인왕산 한신 휴플러스 상가 1층",
      "note": "",
      "zipCode": "03730",
      "latitude": 37.5852499,
      "longitude": 126.9473067
    },
    {
      "id": 27,
      "state": "서울",
      "city": "서대문구",
      "name": "독립문동물병원",
      "phone": "02-733-5060",
      "address": "서울 서대문구 통일로 171-1",
      "note": "",
      "zipCode": "03735",
      "latitude": 37.5690835,
      "longitude": 126.9632165
    },
    {
      "id": 28,
      "state": "서울",
      "city": "서대문구",
      "name": "24시페토피아동물병원",
      "phone": "02-449-7500",
      "address": "서울 송파구 오금로 203 남양빌딩",
      "note": "",
      "zipCode": "05643",
      "latitude": 37.5081479,
      "longitude": 127.1166406
    },
    {
      "id": 29,
      "state": "서울",
      "city": "송파구",
      "name": "리틀버드서울 버드앤주클리닉",
      "phone": "0507-1493-7597",
      "address": "서울 송파구 오금로 332 B동 2층",
      "note": "연중무휴, 24시간",
      "zipCode": "05818",
      "latitude": 37.5014568,
      "longitude": 127.1285216
    },
    {
      "id": 30,
      "state": "서울",
      "city": "송파구",
      "name": "에코동물병원",
      "phone": "02-443-2222",
      "address": "서울 송파구 동남로 161 101호",
      "note": "",
      "zipCode": "05826",
      "latitude": 37.4927823,
      "longitude": 127.1280923
    },
    {
      "id": 31,
      "state": "서울",
      "city": "성동구",
      "name": "오석헌동물병원",
      "phone": "02-6402-0301",
      "address": "서울 성동구 독서당로 223 1층 오석헌동물병원",
      "note": "",
      "zipCode": "04733",
      "latitude": 37.5442707,
      "longitude": 127.0151919
    },
    {
      "id": 32,
      "state": "서울",
      "city": "성동구",
      "name": "조형선외과동물병원",
      "phone": "02-2282-0119",
      "address": "서울 성동구 금호로 146 제1층, 2층",
      "note": "",
      "zipCode": "04727",
      "latitude": 37.5541445,
      "longitude": 127.0208715
    },
    {
      "id": 33,
      "state": "서울",
      "city": "성동구",
      "name": "한양동물메디컬센터",
      "phone": "02-2281-5200",
      "address": "서울 성동구 왕십리로 282",
      "note": "",
      "zipCode": "04751",
      "latitude": 37.5596657,
      "longitude": 127.0370223
    },
    {
      "id": 35,
      "state": "서울",
      "city": "은평구",
      "name": "연서동물종합병원",
      "phone": "02-358-7582",
      "address": "서울 은평구 연서로 162",
      "note": "",
      "zipCode": "03388",
      "latitude": 37.6132129,
      "longitude": 126.9178846
    },
    {
      "id": 36,
      "state": "서울",
      "city": "은평구",
      "name": "김정복동물병원",
      "phone": "02-357-8538",
      "address": "서울 은평구 통일로 879",
      "note": "",
      "zipCode": "03329",
      "latitude": 37.6213919,
      "longitude": 126.9195006
    },
    {
      "id": 37,
      "state": "서울",
      "city": "은평구",
      "name": "새은평동물의료센터",
      "phone": "02-358-7566",
      "address": "서울 은평구 서오릉로 80",
      "note": "",
      "zipCode": "03395",
      "latitude": 37.6075105,
      "longitude": 126.9221383
    },
    {
      "id": 38,
      "state": "서울",
      "city": "송파구",
      "name": "리베동물메디컬센터",
      "phone": "02-2604-0156",
      "address": "서울 송파구 삼전로 56 1~4층(삼전동)",
      "note": "",
      "zipCode": "05581",
      "latitude": 37.5037567,
      "longitude": 127.087912
    },
    {
      "id": 39,
      "state": "서울",
      "city": "양천구",
      "name": "공원옆동물의료센터",
      "phone": "0507-1411-8275",
      "address": "서울 양천구 목동서로 349 목동센트럴프라자 203호",
      "note": "예약제",
      "zipCode": "08095",
      "latitude": 37.5174204,
      "longitude": 126.8653309
    },
    {
      "id": 40,
      "state": "서울",
      "city": "양천구",
      "name": "하니동물의료센터",
      "phone": "02-2647-1772",
      "address": "서울 양천구 등촌로 58",
      "note": "",
      "zipCode": "07965",
      "latitude": 37.5351322,
      "longitude": 126.8637695
    },
    {
      "id": 41,
      "state": "서울",
      "city": "양천구",
      "name": "현림종합동물병원",
      "phone": "02-2642-8886",
      "address": "서울 양천구 등촌로 160",
      "note": "",
      "zipCode": "07951",
      "latitude": 37.5439153,
      "longitude": 126.862466
    },
    {
      "id": 42,
      "state": "서울",
      "city": "중로구",
      "name": "북악동물병원",
      "phone": "02-391-4575",
      "address": "서울 종로구 자하문로 293",
      "note": "",
      "zipCode": "03021",
      "latitude": 37.5988953,
      "longitude": 126.9602705
    },
    {
      "id": 43,
      "state": "서울",
      "city": "중구",
      "name": "황동물병원",
      "phone": "02-2278-0075",
      "address": "서울 중구 퇴계로 254-1",
      "note": "",
      "zipCode": "04619",
      "latitude": 37.5623769,
      "longitude": 127.0000098
    },
    {
      "id": 44,
      "state": "인천",
      "city": "미추홀구",
      "name": "한국동물병원",
      "phone": "032-887-2952",
      "address": "인천 미추홀구 낙섬중로 25 2층",
      "note": "",
      "zipCode": "22190",
      "latitude": 37.4507675,
      "longitude": 126.6366902
    },
    {
      "id": 45,
      "state": "인천",
      "city": "연수구",
      "name": "프라자동물병원",
      "phone": "032-851-5575",
      "address": "인천 연수구 신송로 122 송도프라자 117호",
      "note": "",
      "zipCode": "21994",
      "latitude": 37.395829,
      "longitude": 126.652429
    },
    {
      "id": 47,
      "state": "인천",
      "city": "남동구",
      "name": "소망동물병원",
      "phone": "032-434-6002",
      "address": "인천 남동구 남동대로 737 소망동물병원",
      "note": "",
      "zipCode": "21571",
      "latitude": 37.4481727,
      "longitude": 126.707117
    },
    {
      "id": 48,
      "state": "인천",
      "city": "남동구",
      "name": "찬샘동물병원",
      "phone": "032-251-7575",
      "address": "인천 남동구 인주대로591번길 64 2층",
      "note": "",
      "zipCode": "21558",
      "latitude": 37.4529869,
      "longitude": 126.7031601
    },
    {
      "id": 49,
      "state": "인천",
      "city": "부평구",
      "name": "24시부평종합동물의료센터",
      "phone": "032-511-6836",
      "address": "인천 부평구 부평대로 138 2층",
      "note": "예약제",
      "zipCode": "21358",
      "latitude": 37.503787,
      "longitude": 126.721988
    },
    {
      "id": 50,
      "state": "인천",
      "city": "부평구",
      "name": "쥬라기 동물종합병원",
      "phone": "032-504-7582",
      "address": "인천 부평구 부흥로 367",
      "note": "",
      "zipCode": "21353",
      "latitude": 37.4982849,
      "longitude": 126.7329313
    },
    {
      "id": 52,
      "state": "인천",
      "city": "계양구",
      "name": "다오동물병원",
      "phone": "032-548-0275",
      "address": "인천 계양구 계산새로 71 하이베라스 D동 123호",
      "note": "",
      "zipCode": "21060",
      "latitude": 37.5386558,
      "longitude": 126.7360621
    },
    {
      "id": 53,
      "state": "인천",
      "city": "계양구",
      "name": "아마존동물병원",
      "phone": "032-555-7502",
      "address": "인천 계양구 장제로 873 대건프라자 101호 아마존 동물병원",
      "note": "",
      "zipCode": "21034",
      "latitude": 37.5450885,
      "longitude": 126.7382793
    },
    {
      "id": 54,
      "state": "인천",
      "city": "계양구",
      "name": "한솔동물병원",
      "phone": "032-553-4652",
      "address": "인천 계양구 경명대로 1109",
      "note": "바이러스 의뢰",
      "zipCode": "21030",
      "latitude": 37.543578,
      "longitude": 126.7302621
    },
    {
      "id": 55,
      "state": "대전",
      "city": "서구",
      "name": "케나인동물병원",
      "phone": "042-487-7555",
      "address": "대전 서구 둔산남로 200",
      "note": "",
      "zipCode": "35252",
      "latitude": 36.3487794,
      "longitude": 127.3996738
    },
    {
      "id": 56,
      "state": "대전",
      "city": "서구",
      "name": "24시프라가족동물메디컬센터",
      "phone": "042-486-7581",
      "address": "대전 서구 문정로 16",
      "note": "24시간 연중무휴",
      "zipCode": "35261",
      "latitude": 36.3454996,
      "longitude": 127.3817214
    },
    {
      "id": 57,
      "state": "대전",
      "city": "서구",
      "name": "만년YES동물병원",
      "phone": "042-477-7575",
      "address": "대전 서구 만년로 14 만년YES동물병원",
      "note": "",
      "zipCode": "",
      "latitude": 36.3672154,
      "longitude": 127.3743491
    },
    {
      "id": 58,
      "state": "대전",
      "city": "유성구",
      "name": "예담동물병원",
      "phone": "042-822-5071",
      "address": "대전 유성구 원신흥로55번길 6-4",
      "note": "",
      "zipCode": "34193",
      "latitude": 36.3385755,
      "longitude": 127.3422613
    },
    {
      "id": 59,
      "state": "대전",
      "city": "유성구",
      "name": "황학균동물병원",
      "phone": "042-822-4775",
      "address": "대전 유성구 상대동로2번길 12",
      "note": "",
      "zipCode": "34199",
      "latitude": 36.3432267,
      "longitude": 127.3389303
    },
    {
      "id": 60,
      "state": "대구",
      "city": "수성구",
      "name": "시지동물병원",
      "phone": "053-791-5945",
      "address": "대구 수성구 달구벌대로 3014",
      "note": "중소형조만 가능",
      "zipCode": "42251",
      "latitude": 35.8414066,
      "longitude": 128.6869615
    },
    {
      "id": 61,
      "state": "대전",
      "city": "수성구",
      "name": "세인트동물병원",
      "phone": "053-744-8285",
      "address": "대구 수성구 청호로 484",
      "note": "",
      "zipCode": "42080",
      "latitude": 35.8578372,
      "longitude": 128.6450428
    },
    {
      "id": 62,
      "state": "대구",
      "city": "수성구",
      "name": "조은동물의료원",
      "phone": "053-742-0075",
      "address": "대구 수성구 달구벌대로 2644 조은동물의료원",
      "note": "응급시",
      "zipCode": "42068",
      "latitude": 35.8559906,
      "longitude": 128.6507416
    },
    {
      "id": 63,
      "state": "대구",
      "city": "달서구",
      "name": "용산동물병원",
      "phone": "053-562-1132",
      "address": "대구 달서구 달구벌대로 1658",
      "note": "응급시",
      "zipCode": "42642",
      "latitude": 35.8537204,
      "longitude": 128.5475272
    },
    {
      "id": 64,
      "state": "대구",
      "city": "달서구",
      "name": "한마음종합동물병원",
      "phone": "053-555-7585",
      "address": "대구 달서구 두류공원로 267",
      "note": "",
      "zipCode": "42647",
      "latitude": 35.8568668,
      "longitude": 128.5576985
    },
    {
      "id": 65,
      "state": "대구",
      "city": "중구",
      "name": "두티동물병원",
      "phone": "053-719-0050",
      "address": "대구 중구 달구벌대로 2208 4층",
      "note": "",
      "zipCode": "41951",
      "latitude": 35.8624911,
      "longitude": 128.6045134
    },
    {
      "id": 66,
      "state": "대구",
      "city": "중구",
      "name": "동인동물병원",
      "phone": "053-424-4258",
      "address": "대구 중구 국채보상로 724",
      "note": "",
      "zipCode": "41946",
      "latitude": 35.8683866,
      "longitude": 128.6096728
    },
    {
      "id": 67,
      "state": "부산",
      "city": "사하구",
      "name": "삼성종합동물병원",
      "phone": "051-205-1017",
      "address": "부산 사하구 감천로 32",
      "note": "",
      "zipCode": "",
      "latitude": 35.0909268,
      "longitude": 128.9958241
    },
    {
      "id": 68,
      "state": "부산",
      "city": "금정구",
      "name": "구서동물병원",
      "phone": "051-512-1661",
      "address": "부산 금정구 금강로 454",
      "note": "",
      "zipCode": "46243",
      "latitude": 35.2480686,
      "longitude": 129.0887519
    },
    {
      "id": 69,
      "state": "부산",
      "city": "금정구",
      "name": "에이치동물메디컬센터",
      "phone": "051-583-7575",
      "address": "부산 금정구 부곡로 3",
      "note": "연중무휴 24시",
      "zipCode": "46311",
      "latitude": 35.2176417,
      "longitude": 129.0864381
    },
    {
      "id": 70,
      "state": "부산",
      "city": "동래구",
      "name": "서동 동물메디컬센터",
      "phone": "051-525-7810",
      "address": "부산 금정구 서동로175번길 11",
      "note": "연중무휴",
      "zipCode": "46321",
      "latitude": 35.2149096,
      "longitude": 129.1063182
    },
    {
      "id": 71,
      "state": "부산",
      "city": "동래구",
      "name": "레알피부전문동물병원",
      "phone": "051-524-8275",
      "address": "부산 동래구 반송로 243",
      "note": "",
      "zipCode": "47754",
      "latitude": 35.2024216,
      "longitude": 129.0989276
    },
    {
      "id": 72,
      "state": "부산",
      "city": "해운대구",
      "name": "조앤박동물병원",
      "phone": "051-702-7511",
      "address": "부산 해운대구 양운로 108 2층 조앤박동물병원",
      "note": "",
      "zipCode": "48079",
      "latitude": 35.1724558,
      "longitude": 129.1740332
    },
    {
      "id": 74,
      "state": "부산",
      "city": "북구",
      "name": "덕천동물의료센터",
      "phone": "051-332-8060",
      "address": "부산 북구 만덕대로 119",
      "note": "",
      "zipCode": "46554",
      "latitude": 35.2134063,
      "longitude": 129.0178801
    },
    {
      "id": 75,
      "state": "부산",
      "city": "사하구",
      "name": "사하동물병원",
      "phone": "051-206-1891",
      "address": "부산 사하구 낙동대로 356 사하동물병원",
      "note": "",
      "zipCode": "49345",
      "latitude": 35.1015364,
      "longitude": 128.9788456
    },
    {
      "id": 76,
      "state": "부산",
      "city": "연제구",
      "name": "이룸동물병원",
      "phone": "051-868-0075",
      "address": "부산 연제구 연수로 140 이룸동물병원",
      "note": "",
      "zipCode": "47610",
      "latitude": 35.174524,
      "longitude": 129.0860329
    },
    {
      "id": 78,
      "state": "부산",
      "city": "남구",
      "name": "튼튼동물병원",
      "phone": "051-621-7555",
      "address": "부산 남구 수영로334번길 3 2층 튼튼동물병원",
      "note": "",
      "zipCode": "48509",
      "latitude": 35.1382484,
      "longitude": 129.1024371
    },
    {
      "id": 79,
      "state": "광주",
      "city": "광산구",
      "name": "수완종합동물병원",
      "phone": "062-959-0975",
      "address": "광주 광산구 장신로 164 1층",
      "note": "",
      "zipCode": "62306",
      "latitude": 35.190362,
      "longitude": 126.8280905
    },
    {
      "id": 80,
      "state": "광주",
      "city": "광산구",
      "name": "예동물병원",
      "phone": "062-945-8277",
      "address": "광주 광산구 어등대로 712",
      "note": "",
      "zipCode": "62429",
      "latitude": 35.141664,
      "longitude": 126.7941864
    },
    {
      "id": 81,
      "state": "광주",
      "city": "남구",
      "name": "고려동물병원",
      "phone": "052-652-7585",
      "address": "광주 남구 용대로 154-2 고려동물병원",
      "note": "",
      "zipCode": "61676",
      "latitude": 35.129852,
      "longitude": 126.918342
    },
    {
      "id": 82,
      "state": "울산",
      "city": "남구",
      "name": "리틀쥬동물병원",
      "phone": "052-268-8884",
      "address": "울산 남구 봉월로 104 1. 2층",
      "note": "",
      "zipCode": "44670",
      "latitude": 35.5417347,
      "longitude": 129.3062993
    },
    {
      "id": 83,
      "state": "경기도",
      "city": "구리시",
      "name": "아마존물병원",
      "phone": "031-564-0075",
      "address": "경기 구리시 경춘로 128",
      "note": "",
      "zipCode": "11952",
      "latitude": 37.6006451,
      "longitude": 127.129486
    },
    {
      "id": 84,
      "state": "경기도",
      "city": "군포시",
      "name": "군포굿닥터동물병원",
      "phone": "0507-1437-7533",
      "address": "경기 군포시 고산로 242 1층",
      "note": "예약제",
      "zipCode": "15856",
      "latitude": 37.3460729,
      "longitude": 126.9456192
    },
    {
      "id": 85,
      "state": "경기도",
      "city": "과천시",
      "name": "꾸러기동물병원",
      "phone": "02-502-7509",
      "address": "경기 과천시 별양상가2로 20",
      "note": "",
      "zipCode": "13837",
      "latitude": 37.4268349,
      "longitude": 126.9925709
    },
    {
      "id": 86,
      "state": "경기도",
      "city": "광주시",
      "name": "분당에덴동물병원",
      "phone": "031-726-3336",
      "address": "경기 광주시 능평로 203",
      "note": "",
      "zipCode": "12773",
      "latitude": 37.3450531,
      "longitude": 127.1775172
    },
    {
      "id": 87,
      "state": "경기도",
      "city": "부천시",
      "name": "고강동물병원",
      "phone": "032-683-5137",
      "address": "경기 부천시 오정구 역곡로 473",
      "note": "",
      "zipCode": "14416",
      "latitude": 37.5268952,
      "longitude": 126.8158189
    },
    {
      "id": 88,
      "state": "경기도",
      "city": "부천시",
      "name": "동물사랑병원",
      "phone": "032-323-8275",
      "address": "경기 부천시 원미구 도약로 39",
      "note": "예약제",
      "zipCode": "14504",
      "latitude": 37.5125194,
      "longitude": 126.7538632
    },
    {
      "id": 89,
      "state": "경기도",
      "city": "고양시",
      "name": "탑케어동물의료원",
      "phone": "1666-7501",
      "address": "경기 고양시 덕양구 화신로272번길 5",
      "note": "24시간",
      "zipCode": "10500",
      "latitude": 37.6311924,
      "longitude": 126.8310976
    },
    {
      "id": 91,
      "state": "경기도",
      "city": "남양주시",
      "name": "가람동물병원",
      "phone": "031-906-0976",
      "address": "경기 고양시 일산동구 강석로 156 선경상가 101호",
      "note": "",
      "zipCode": "10415",
      "latitude": 37.65474,
      "longitude": 126.777761
    },
    {
      "id": 92,
      "state": "경기도",
      "city": "남양주시",
      "name": "24시 일산시티동물의료센터",
      "phone": "031-932-0085",
      "address": "경기 고양시 일산동구 무궁화로 8-28 삼성메르헨하우스",
      "note": "24시간",
      "zipCode": "10401",
      "latitude": 37.6601602,
      "longitude": 126.7664617
    },
    {
      "id": 93,
      "state": "경기도",
      "city": "남양주시",
      "name": "24시공감365동물의료센터",
      "phone": "031-575-9276",
      "address": "경기 남양주시 진접읍 해밀예당1로 220 2층",
      "note": "원장 출근 시",
      "zipCode": "12059",
      "latitude": 37.7200978,
      "longitude": 127.2026542
    },
    {
      "id": 94,
      "state": "경기도",
      "city": "안양시",
      "name": "서울종합동물병원",
      "phone": "031-442-7565",
      "address": "경기 안양시 동안구 흥안대로 492",
      "note": "",
      "zipCode": "13943",
      "latitude": 37.3977862,
      "longitude": 126.9774839
    },
    {
      "id": 95,
      "state": "경기도",
      "city": "안산시",
      "name": "쥬쥬동물병원",
      "phone": "031-487-0275",
      "address": "경기 안산시 단원구 광덕대로 206 골든빌오피스텔 103호",
      "note": "",
      "zipCode": "15462",
      "latitude": 37.3147166,
      "longitude": 126.8312156
    },
    {
      "id": 96,
      "state": "경기도",
      "city": "의정부시",
      "name": "오즈동물병원",
      "phone": "031-840-0075",
      "address": "경기 의정부시 추동로 13",
      "note": "",
      "zipCode": "11740",
      "latitude": 37.743147,
      "longitude": 127.057466
    },
    {
      "id": 97,
      "state": "경기도",
      "city": "의정부시",
      "name": "서정대부설애완동물센터",
      "phone": "031-928-5067",
      "address": "경기 의정부시 호국로1310번길 44(펫인쥬)",
      "note": "",
      "zipCode": "11692",
      "latitude": 37.7415967,
      "longitude": 127.0495374
    },
    {
      "id": 98,
      "state": "경기도",
      "city": "용인시",
      "name": "죽전동물병원",
      "phone": "031-266-2993",
      "address": "경기 용인시 기흥구 죽전로 49 씨티프라자 101호",
      "note": "",
      "zipCode": "16898",
      "latitude": 37.3207183,
      "longitude": 127.1142799
    },
    {
      "id": 99,
      "state": "경기도",
      "city": "용인시",
      "name": "한마음동물병원",
      "phone": "031-265-7512",
      "address": "경기 용인시 수지구 풍덕천로 113",
      "note": "",
      "zipCode": "16836",
      "latitude": 37.3225625,
      "longitude": 127.0942539
    },
    {
      "id": 100,
      "state": "경기도",
      "city": "용인시",
      "name": "AP동물병원",
      "phone": "031-263-0085",
      "address": "경기 용인시 수지구 수지로 421 태평빌딩 1층",
      "note": "",
      "zipCode": "16828",
      "latitude": 37.3342655,
      "longitude": 127.0974744
    },
    {
      "id": 101,
      "state": "경기도",
      "city": "성남시",
      "name": "가나동물병원",
      "phone": "031-721-7582",
      "address": "경기 성남시 수정구 수정로 160 신흥상가",
      "note": "",
      "zipCode": "13338",
      "latitude": 37.4424985,
      "longitude": 127.1378185
    },
    {
      "id": 102,
      "state": "경기도",
      "city": "성남시",
      "name": "24시 휴 동물의료센터",
      "phone": "0507-1332-7584",
      "address": "경기 성남시 수정구 산성대로 309 2~3층 (접수 및 수납 3층)",
      "note": "",
      "zipCode": "13354",
      "latitude": 37.4425587,
      "longitude": 127.1509877
    },
    {
      "id": 103,
      "state": "경기도",
      "city": "수원시",
      "name": "이지훈동물병원",
      "phone": "031-295-5975",
      "address": "경기 수원시 권선구 금호로 261 이지훈동물병원",
      "note": "연중무휴",
      "zipCode": "16410",
      "latitude": 37.2761849,
      "longitude": 126.9785907
    },
    {
      "id": 104,
      "state": "경기도",
      "city": "수원시",
      "name": "새봄동물병원",
      "phone": "031-205-9975",
      "address": "경기 수원시 영통구 봉영로 1569 뉴월드프라자 1층 121호",
      "note": "소형조",
      "zipCode": "16703",
      "latitude": 37.2520638,
      "longitude": 127.0710165
    },
    {
      "id": 105,
      "state": "강원도",
      "city": "원주시",
      "name": "로얄종합동물병원",
      "phone": "033-766-8230",
      "address": "강원 원주시 남원로 655",
      "note": "",
      "zipCode": "26441",
      "latitude": 37.3413762,
      "longitude": 127.9534454
    },
    {
      "id": 107,
      "state": "강원도",
      "city": "춘천시",
      "name": "하나동물병원",
      "phone": "033-243-7511",
      "address": "강원 춘천시 춘천로 287-1",
      "note": "",
      "zipCode": "24256",
      "latitude": 37.8810626,
      "longitude": 127.7450063
    },
    {
      "id": 108,
      "state": "강원도",
      "city": "춘천시",
      "name": "강원대 수의과 동물병원",
      "phone": "033-250-8606",
      "address": "강원 춘천시 공지로 188-77",
      "note": "",
      "zipCode": "24345",
      "latitude": 37.8656842,
      "longitude": 127.7461699
    },
    {
      "id": 109,
      "state": "충청남도",
      "city": "세종시",
      "name": "세종충북대학교동물병원",
      "phone": "044-589-1122",
      "address": "세종 집현북로 109 대학동 4 충북대학교 건물",
      "note": "화,금, 예약제",
      "zipCode": "30139",
      "latitude": 36.5011785,
      "longitude": 127.3301076
    },
    {
      "id": 110,
      "state": "충청남도",
      "city": "세종시",
      "name": "세종동물의료센터",
      "phone": "044-863-7578",
      "address": "세종 한누리대로 157 1층",
      "note": "예약제",
      "zipCode": "30130",
      "latitude": 36.4793087,
      "longitude": 127.2625014
    },
    {
      "id": 111,
      "state": "충청남도",
      "city": "세종시",
      "name": "서울동물의료센터",
      "phone": "044-865-7005",
      "address": "세종 보듬7로 78 2층",
      "note": "",
      "zipCode": "30099",
      "latitude": 36.5196411,
      "longitude": 127.2506627
    },
    {
      "id": 112,
      "state": "충청남도",
      "city": "천안시",
      "name": "애니펫동물병원",
      "phone": "041-523-8275",
      "address": "충남 천안시 동남구 터미널2로 8 대흥빌딩 2층",
      "note": "",
      "zipCode": "31119",
      "latitude": 36.8196376,
      "longitude": 127.1584345
    },
    {
      "id": 113,
      "state": "충청남도",
      "city": "천안시",
      "name": "고려동물병원",
      "phone": "041-557-8575",
      "address": "충남 천안시 동남구 중앙로 281-2 승지빌딩",
      "note": "",
      "zipCode": "31117",
      "latitude": 36.8234615,
      "longitude": 127.1524546
    },
    {
      "id": 114,
      "state": "충청남도",
      "city": "천안시",
      "name": "다솜동물병원",
      "phone": "041-579-8252",
      "address": "충남 천안시 동남구 수곡2길 8-3",
      "note": "",
      "zipCode": "31176",
      "latitude": 36.7889704,
      "longitude": 127.1284662
    },
    {
      "id": 115,
      "state": "충청남도",
      "city": "천안시",
      "name": "아리스타동물의료센터",
      "phone": "041-909-4141",
      "address": "충남 천안시 서북구 불당23로 73-30 아리스타 팰리스 1층, 아리스타 동물의료센터",
      "note": "수,금 가능",
      "zipCode": "31156",
      "latitude": 36.8200745,
      "longitude": 127.1104351
    },
    {
      "id": 116,
      "state": "충청남도",
      "city": "천안시",
      "name": "드림동물병원",
      "phone": "041-572-7582",
      "address": "충남 천안시 동남구 통정12로 95 드림동물병원",
      "note": "",
      "zipCode": "31205",
      "latitude": 36.7748514,
      "longitude": 127.137483
    },
    {
      "id": 117,
      "state": "충청남도",
      "city": "공주시",
      "name": "이기영수의과병원",
      "phone": "041-853-7575",
      "address": "충남 공주시 감영길 7",
      "note": "예약제",
      "zipCode": "32546",
      "latitude": 36.4528869,
      "longitude": 127.1220721
    },
    {
      "id": 118,
      "state": "충청북도",
      "city": "청주시",
      "name": "충북대학교수의과대학 및 동물병원",
      "phone": "043-261-2602",
      "address": "충북 청주시 서원구 충대로 1",
      "note": "바이러스검사",
      "zipCode": "28644",
      "latitude": 36.6300483,
      "longitude": 127.4550701
    },
    {
      "id": 119,
      "state": "충청북도",
      "city": "충주시",
      "name": "열린동물병원",
      "phone": "043-857-0075",
      "address": "충북 충주시 금릉로 78",
      "note": "",
      "zipCode": "27357",
      "latitude": 36.9845393,
      "longitude": 127.924515
    },
    {
      "id": 120,
      "state": "경상남도",
      "city": "진주시",
      "name": "경상대 수의과 동물병원",
      "phone": "055-772-1111",
      "address": "경남 진주시 진주대로 501",
      "note": "",
      "zipCode": "52828",
      "latitude": 35.1538876,
      "longitude": 128.0985941
    },
    {
      "id": 121,
      "state": "경상남도",
      "city": "진주시",
      "name": "이솝동물메디컬",
      "phone": "055-748-7500",
      "address": "경남 진주시 남강로309번길 20 2층 203호 이솝동물메디컬",
      "note": "",
      "zipCode": "52703",
      "latitude": 35.1694603,
      "longitude": 128.0625136
    },
    {
      "id": 122,
      "state": "경상남도",
      "city": "거제시",
      "name": "현대동물병원",
      "phone": "055-636-3662",
      "address": "경남 거제시 장평로 5",
      "note": "",
      "zipCode": "53268",
      "latitude": 34.8903557,
      "longitude": 128.616022
    },
    {
      "id": 123,
      "state": "경상남도",
      "city": "김해시",
      "name": "아쿠아종합동물병원",
      "phone": "055-312-4252",
      "address": "경남 김해시 번화2로 42 아쿠아동물병원",
      "note": "",
      "zipCode": "51000",
      "latitude": 35.1927182,
      "longitude": 128.8049911
    },
    {
      "id": 124,
      "state": "경상북도",
      "city": "상주시",
      "name": "경북대 수의과 부속동물병원분원",
      "phone": "054-530-1970",
      "address": "경북 상주시 존애원로 68",
      "note": "",
      "zipCode": "",
      "latitude": 36.3729398,
      "longitude": 128.1394123
    },
    {
      "id": 125,
      "state": "경상남도",
      "city": "양산시",
      "name": "신세계동물의료센터",
      "phone": "055-367-9123",
      "address": "경남 양산시 물금읍 새실로 159 나래매트로시티 A동 201호 신세계동물의료센터",
      "note": "",
      "zipCode": "50653",
      "latitude": 35.3152964,
      "longitude": 129.0043873
    },
    {
      "id": 126,
      "state": "경상북도",
      "city": "포항시",
      "name": "신세계동물병원",
      "phone": "054-273-9636",
      "address": "경북 포항시 남구 중앙로 20-1",
      "note": "",
      "zipCode": "37811",
      "latitude": 36.0151476,
      "longitude": 129.3709376
    },
    {
      "id": 127,
      "state": "경상북도",
      "city": "포항시",
      "name": "온누리동물의료센터",
      "phone": "055-274-7525",
      "address": "경남 창원시 성산구 원이대로 676 금탑빌딩1층 온누리동물의료센터",
      "note": "",
      "zipCode": "51495",
      "latitude": 35.2231991,
      "longitude": 128.6870107
    },
    {
      "id": 128,
      "state": "경상남도",
      "city": "창원시",
      "name": "서울동물병원",
      "phone": "055-274-1400",
      "address": "경남 창원시 성산구 가음로13번길 33 남양종합상가",
      "note": "",
      "zipCode": "",
      "latitude": 35.2130852,
      "longitude": 128.7009716
    },
    {
      "id": 129,
      "state": "경상남도",
      "city": "창원시",
      "name": "펫유동물병원",
      "phone": "055-295-5014",
      "address": "경남 창원시 마산회원구 양덕서로 47 206, 207호",
      "note": "",
      "zipCode": "51317",
      "latitude": 35.2293647,
      "longitude": 128.5815553
    },
    {
      "id": 130,
      "state": "경상남도",
      "city": "창원시",
      "name": "한일동물병원",
      "phone": "055-255-7585",
      "address": "경남 창원시 마산회원구 양덕로 170 한일동물병원",
      "note": "",
      "zipCode": "51363",
      "latitude": 35.2332267,
      "longitude": 128.5822644
    },
    {
      "id": 131,
      "state": "전라북도",
      "city": "전주시",
      "name": "전주동물병원",
      "phone": "0507-1441-0630",
      "address": "전북 전주시 완산구 세내로 509-1",
      "note": "",
      "zipCode": "54957",
      "latitude": 35.8321497,
      "longitude": 127.1028514
    },
    {
      "id": 132,
      "state": "제주도",
      "city": "제주시",
      "name": "제주대 수의과 동물병원",
      "phone": "064-754-3384",
      "address": "제주 제주시 제주대학로 102 동물병원",
      "note": "",
      "zipCode": "63243",
      "latitude": 33.455902,
      "longitude": 126.5623921
    },
    {
      "id": 133,
      "state": "제주도",
      "city": "제주시",
      "name": "튼튼동물병원",
      "phone": "064-757-7582",
      "address": "제주 제주시 중앙로 351",
      "note": "",
      "zipCode": "63231",
      "latitude": 33.4905642,
      "longitude": 126.5380155
    },
    {
      "id": 134,
      "state": "제주도",
      "city": "제주시",
      "name": "한라동물종합병원",
      "phone": "064-753-0880",
      "address": "제주 제주시 고마로 37",
      "note": "",
      "zipCode": "63252",
      "latitude": 33.5108672,
      "longitude": 126.5390471
    },
    {
      "id": 135,
      "state": "제주도",
      "city": "제주시",
      "name": "키움동물병원",
      "phone": "064-725-7579",
      "address": "제주 제주시 중앙로 273 나라키움 복합관사 106호",
      "note": "예약제",
      "zipCode": "63210",
      "latitude": 33.4962689,
      "longitude": 126.5326731
    },
    {
      "id": 136,
      "state": "제주도",
      "city": "제주시",
      "name": "봄이든동물병원",
      "phone": "064-745-9975",
      "address": "제주 제주시 애월읍 일주서로 7143",
      "note": "",
      "zipCode": "63053",
      "latitude": 33.4860246,
      "longitude": 126.4119169
    }
  ]
}